City_ID,City,Lat,Lng,Max Temp,Humidity,Cloudiness,Wind Speed,Country,Date
0,atafu village,-8.5421,-172.5159,26.05,89,100,3.69,TK,1702452748
1,port-aux-francais,-49.35,70.2167,6.1,93,99,8.99,TF,1702452748
2,isafjordur,66.0755,-23.124,6.02,70,100,3.6,IS,1702452750
3,polewali,-3.4324,119.3435,28.92,81,80,0.54,ID,1702452750
4,gisborne,-38.6533,178.0042,12.33,78,100,1.1,NZ,1702452750
5,labytnangi,66.6572,66.4183,-23.57,90,16,2.59,RU,1702452750
6,chetwayi,10.5333,76.05,31.01,59,13,5.61,IN,1702452750
7,waitangi,-43.9535,-176.5597,9.34,63,9,10.59,NZ,1702452750
8,puerto ayora,-0.7393,-90.3518,24.06,89,98,3.81,EC,1702452751
9,halden,59.1226,11.3871,-3.76,93,18,2.58,NO,1702452751
10,port elizabeth,-33.918,25.5701,21.17,73,40,4.63,ZA,1702452751
11,adamstown,-25.066,-130.1015,22.91,82,64,3.82,PN,1702452751
12,micheweni,-4.9667,39.8333,30.18,64,2,0.53,TZ,1702452751
13,aasiaat,68.7098,-52.8699,-10.78,85,96,6.1,GL,1702452752
14,imperatriz,-5.5264,-47.4917,25.03,100,0,1.03,BR,1702452752
15,saipan,15.1355,145.701,28.39,78,40,5.66,MP,1702452752
16,pagar alam,-4.0167,103.2667,27.26,68,94,0.53,ID,1702452752
17,suntar,62.1444,117.6319,-26.76,93,100,4.8,RU,1702452743
18,udachny,66.4167,112.4,-23.59,96,100,5.66,RU,1702452752
19,nizhnevartovsk,60.9344,76.5531,-21.66,71,0,7.15,RU,1702452752
20,port alfred,-33.5906,26.891,18.43,84,42,3.13,ZA,1702452753
21,yabelo,4.8833,38.0833,20.13,62,65,3.42,ET,1702452753
22,tianpeng,30.9866,103.9393,14.26,53,57,2.45,CN,1702452753
23,erenhot,43.6475,111.9767,-10.72,60,99,7.71,CN,1702452753
24,whitehorse,60.7161,-135.0538,2.43,87,100,8.23,CA,1702452753
25,antsiranana,-12.2787,49.2917,33.42,49,40,6.17,MG,1702452754
26,ribeira grande,38.5167,-28.7,14.32,67,20,3.6,PT,1702452754
27,markaz-e hukumat-e darweshan,31.1323,64.1934,17.27,25,100,0.66,AF,1702452754
28,ladario,-19.0047,-57.6017,25.33,73,6,0.82,BR,1702452754
29,grytviken,-54.2811,-36.5092,5.54,87,100,5.98,GS,1702452755
30,illizi,26.4833,8.4667,9.89,18,55,1.45,DZ,1702452755
31,klyuchi,52.2667,79.1667,-22.89,74,67,2.8,RU,1702452755
32,villa angela,-27.5738,-60.7153,27.86,65,0,5.13,AR,1702452755
33,alaghsas,17.0187,8.0168,17.94,25,0,7.2,NE,1702452755
34,utrik,11.2278,169.8474,27.27,84,94,9.98,MH,1702452755
35,puerto natales,-51.7236,-72.4875,6.37,92,100,3.47,CL,1702452745
36,lihue,21.9789,-159.3672,23.58,88,100,13.89,US,1702452756
37,ust-nera,64.5667,143.2,-27.69,100,88,2.54,RU,1702452756
38,rio grande,-32.035,-52.0986,22.19,92,36,5.64,BR,1702452752
39,alice springs,-23.7,133.8833,36.75,14,2,1.03,AU,1702452756
40,edinburgh of the seven seas,-37.0676,-12.3116,14.75,90,99,6.78,SH,1702452757
41,cabedelo,-6.9811,-34.8339,25.37,71,95,6.27,BR,1702452757
42,port mathurin,-19.6833,63.4167,26.43,76,16,6.52,MU,1702452757
43,protaras,35.0125,34.0583,18.95,72,0,0.45,CY,1702452757
44,narimanov,46.6927,47.8498,-9.05,50,100,10.16,RU,1702452757
45,americus,32.0724,-84.2327,4.07,87,0,2.06,US,1702452757
46,shawano,44.7822,-88.609,-5.01,68,40,2.06,US,1702452757
47,fale old settlement,-9.3852,-171.2468,26.12,91,100,6.23,TK,1702452757
48,longyearbyen,78.2186,15.6401,-3.09,86,20,8.23,SJ,1702452758
49,kone,-21.0595,164.8658,25.5,71,16,2.81,NC,1702452758
50,invercargill,-46.4,168.35,12.0,75,22,9.51,NZ,1702452758
51,bethel,41.3712,-73.414,3.3,74,0,1.54,US,1702452758
52,bredasdorp,-34.5322,20.0403,20.24,49,56,3.39,ZA,1702452759
53,yigo village,13.5361,144.8886,29.62,75,0,8.75,GU,1702452759
54,west island,-12.1568,96.8225,29.99,66,75,6.69,CC,1702452759
55,rongelap,11.1635,166.8941,27.49,83,18,9.29,MH,1702452759
56,punta arenas,-53.15,-70.9167,7.06,65,40,11.83,CL,1702452561
57,iqaluit,63.7506,-68.5145,-13.15,66,100,5.66,CA,1702452760
58,luderitz,-26.6481,15.1594,22.36,45,0,9.1,NA,1702452760
59,broken hill,-31.95,141.4333,33.97,14,2,11.19,AU,1702452760
60,mu'minobod,38.1085,70.0285,2.35,57,10,1.99,TJ,1702452760
61,changji,44.0167,87.3167,-12.56,66,20,3.0,CN,1702452760
62,puerto baquerizo moreno,-0.9,-89.6,23.71,89,37,4.98,EC,1702452760
63,college,64.8569,-147.8028,-14.03,82,100,2.06,US,1702452761
64,whangarei,-35.7317,174.3239,14.9,78,48,3.92,NZ,1702452761
65,margaret river,-33.95,115.0667,21.53,57,0,7.57,AU,1702452761
66,keflavik,64.0049,-22.5624,7.24,100,100,10.8,IS,1702452761
67,pemangkat,1.1667,108.9667,28.51,78,89,4.78,ID,1702452761
68,manokwari,-0.8667,134.0833,28.14,77,51,3.95,ID,1702452762
69,port saint john's,-31.6229,29.5448,18.25,84,100,4.31,ZA,1702452762
70,papatowai,-46.5619,169.4708,11.47,73,63,10.76,NZ,1702452762
71,chenzhou,25.8,113.0333,22.84,69,76,3.47,CN,1702452762
72,sabang,5.8933,95.3214,27.5,79,38,7.09,ID,1702452762
73,kruisfontein,-34.0033,24.7314,19.94,49,0,3.58,ZA,1702452762
74,qarazhal,48.0078,70.7903,-15.71,57,0,4.58,KZ,1702452762
75,karratha,-20.7377,116.8463,33.17,34,0,7.14,AU,1702452763
76,talnakh,69.4865,88.3972,-24.89,96,100,4.9,RU,1702452763
77,freetown,8.484,-13.2299,24.84,100,40,1.03,SL,1702452763
78,dubbo,-32.25,148.6167,34.07,29,40,8.75,AU,1702452609
79,arraial do cabo,-22.9661,-42.0278,22.03,76,0,2.05,BR,1702452763
80,arauquita,7.0292,-71.4281,23.66,73,45,1.31,CO,1702452763
81,beyneu,45.3167,55.2,-2.63,54,100,13.46,KZ,1702452763
82,sao vicente,-23.9631,-46.3919,22.93,26,0,1.25,BR,1702452764
83,rodolfo sanchez taboada,31.7167,-116.5667,13.39,76,4,0.45,MX,1702452764
84,san patricio,28.017,-97.5169,20.47,86,100,2.99,US,1702452764
85,saint-francois,46.4154,3.9054,8.69,82,0,3.09,FR,1702452765
86,thinadhoo,0.5333,72.9333,28.44,74,83,2.77,MV,1702452765
87,afaahiti,-17.75,-149.2833,25.93,86,100,10.62,PF,1702452766
88,tura,25.5198,90.2201,21.63,56,48,1.83,IN,1702452766
89,nizhnesortymskiy,62.4397,71.7603,-16.96,96,100,7.32,RU,1702452766
90,stanley,54.868,-1.6985,4.87,93,75,5.14,GB,1702452766
91,iskateley,67.6803,53.1512,-18.32,98,100,4.02,RU,1702452766
92,coquimbo,-29.9533,-71.3436,14.85,100,75,3.6,CL,1702452581
93,hithadhoo,-0.6,73.0833,28.43,74,95,2.96,MV,1702452766
94,saint-joseph,-21.3667,55.6167,29.5,83,39,4.2,RE,1702452767
95,vilyuysk,63.7553,121.6247,-26.25,95,100,4.25,RU,1702452767
96,tidjikja,18.5564,-11.4271,19.17,26,96,5.89,MR,1702452767
97,nemuro,43.3236,145.575,-2.15,79,100,6.7,JP,1702452767
98,sisimiut,66.9395,-53.6735,-8.74,92,100,5.89,GL,1702452768
99,jamestown,42.097,-79.2353,0.77,74,75,7.6,US,1702452668
100,kodiak,57.79,-152.4072,-6.27,68,20,4.12,US,1702452519
101,nabire,-3.3667,135.4833,28.68,79,74,1.91,ID,1702452768
102,tiksi,71.6872,128.8694,-18.31,99,100,6.49,RU,1702452768
103,hamilton,39.1834,-84.5333,2.27,71,0,0.89,US,1702452680
104,naze,28.3667,129.4833,20.51,75,88,5.29,JP,1702452769
105,hawaiian paradise park,19.5933,-154.9731,21.73,96,100,3.6,US,1702452769
106,axim,4.8699,-2.2405,27.47,73,19,2.94,GH,1702452769
107,port alberni,49.2413,-124.8028,6.91,94,100,0.89,CA,1702452769
108,sao joaquim,-28.2939,-49.9317,10.15,99,37,1.33,BR,1702452538
109,avarua,-21.2078,-159.775,26.03,89,75,4.63,CK,1702452770
110,greymouth,-42.4667,171.2,12.64,88,99,4.29,NZ,1702452770
111,timaru,-44.4,171.25,16.15,88,2,2.24,NZ,1702452770
112,bilibino,68.0546,166.4372,-22.7,97,99,2.02,RU,1702452770
113,blackmans bay,-43.0167,147.3167,21.4,74,100,1.74,AU,1702452770
114,chegdomyn,51.1167,133.0167,-30.44,95,71,1.07,RU,1702452770
115,tavares,28.8042,-81.7256,16.14,92,0,5.14,US,1702452770
116,roznov pod radhostem,49.4585,18.143,4.47,100,100,1.54,CZ,1702452771
117,tabou,4.423,-7.3528,26.38,80,5,1.09,CI,1702452771
118,thompson,55.7435,-97.8558,-22.91,84,20,1.03,CA,1702452607
119,talakan,50.3167,130.3667,-25.81,91,19,2.4,RU,1702452772
120,inhambane,-23.865,35.3833,26.99,83,75,7.72,MZ,1702452772
121,lincheng,19.9078,109.6858,26.22,77,87,4.71,CN,1702452772
122,lompoc,34.6391,-120.4579,12.74,90,100,4.63,US,1702452772
123,novyy urgal,51.0736,132.5642,-30.58,96,37,0.51,RU,1702452772
124,amungan,15.3652,119.9582,29.88,69,94,2.97,PH,1702452773
125,vila franca do campo,37.7167,-25.4333,14.23,67,40,4.17,PT,1702452773
126,ndola,-12.9587,28.6366,25.31,70,81,1.79,ZM,1702452773
127,gonabad,34.3529,58.6837,13.01,29,100,2.65,IR,1702452773
128,lapa,-25.7697,-49.7158,11.82,98,35,1.45,BR,1702452773
129,araguaina,-7.1911,-48.2072,23.74,82,56,1.28,BR,1702452618
130,maroantsetra,-15.4333,49.7333,28.19,70,44,2.17,MG,1702452774
131,smithers,54.7804,-127.1743,0.18,74,100,3.09,CA,1702452621
132,aykhal,66.0,111.5,-24.63,97,100,3.99,RU,1702452774
133,port allen,30.4521,-91.2101,7.23,77,0,2.06,US,1702452774
134,benidorm,38.5382,-0.131,19.71,71,100,2.76,ES,1702452774
135,guangyuan,32.442,105.823,11.19,83,100,0.56,CN,1702452774
136,sines,37.9562,-8.8698,14.6,77,100,4.02,PT,1702452774
137,rurrenabaque,-14.4413,-67.5278,23.12,98,100,0.63,BO,1702452775
138,lukolela,-1.0605,17.1821,26.21,80,86,0.47,CD,1702452775
139,callao,-12.0667,-77.15,21.51,83,75,3.6,PE,1702452730
140,nuuk,64.1835,-51.7216,-6.66,86,100,7.72,GL,1702452540
141,blenheim,-41.516,173.9528,13.07,77,61,1.76,NZ,1702452775
142,nuku'alofa,-21.1333,-175.2,25.19,83,20,2.57,TO,1702452776
143,qaqortoq,60.7167,-46.0333,-2.77,83,100,5.56,GL,1702452776
144,ponta grossa,-25.095,-50.1619,12.0,95,9,1.4,BR,1702452776
145,uhrichsville,40.3931,-81.3465,0.42,79,0,1.54,US,1702452694
146,kingston,17.997,-76.7936,27.53,81,20,2.06,JM,1702452776
147,salem,11.65,78.1667,28.11,54,40,4.12,IN,1702452776
148,quellon,-43.1167,-73.6167,7.59,83,53,1.58,CL,1702452776
149,ghatanji,20.1333,78.3167,27.61,39,77,1.67,IN,1702452777
150,berdigestyakh,62.0989,126.6992,-29.49,94,100,4.01,RU,1702452777
151,graaff-reinet,-32.2522,24.5308,18.84,63,8,1.24,ZA,1702452777
152,qarauyl,48.9451,79.255,-24.63,89,100,5.97,KZ,1702452777
153,mora,11.0461,14.1401,20.92,26,7,3.05,CM,1702452777
154,chonchi,-42.6128,-73.8092,6.56,97,22,1.07,CL,1702452777
155,arica,-18.475,-70.3042,21.13,68,100,1.54,CL,1702452778
156,famagusta,35.125,33.95,19.0,72,1,6.44,CY,1702452778
157,djambala,-2.5447,14.7533,22.9,84,99,0.88,CG,1702452778
158,ilulissat,69.2167,-51.1,-6.99,63,100,5.66,GL,1702452778
159,champerico,14.3,-91.9167,26.03,71,3,1.69,GT,1702452778
160,anadyr,64.75,177.4833,-24.72,77,0,5.0,RU,1702452778
161,gizo,-8.103,156.8419,28.16,74,52,2.46,SB,1702452779
162,dudinka,69.4058,86.1778,-24.66,89,100,8.05,RU,1702452779
163,auki,-8.7676,160.7034,26.13,87,99,0.81,SB,1702452779
164,sona,45.4388,10.8255,6.75,95,75,1.03,IT,1702452779
165,wailua homesteads,22.0669,-159.378,23.24,91,100,13.89,US,1702452779
166,souillac,-20.5167,57.5167,30.21,70,40,5.66,MU,1702452779
167,vorgashor,67.5833,63.95,-19.61,98,100,3.91,RU,1702452779
168,mount isa,-20.7333,139.5,37.87,30,40,4.63,AU,1702452661
169,kavieng,-2.5744,150.7967,28.78,77,71,2.88,PG,1702452780
170,namibe,-15.1961,12.1522,23.46,73,99,2.36,AO,1702452780
171,homer,59.6425,-151.5483,-5.06,77,100,9.77,US,1702452780
172,nago,26.5881,127.9761,23.47,69,23,1.85,JP,1702452780
173,georgetown,5.4112,100.3354,31.96,70,20,4.63,MY,1702452776
174,mbengwi,6.0167,10.0,23.27,44,20,1.18,CM,1702452781
175,happy valley-goose bay,53.3168,-60.3315,-7.83,79,20,2.57,CA,1702452611
176,hilton head,32.2163,-80.7526,8.88,62,0,5.14,US,1702452781
177,ismailia,30.6043,32.2723,17.04,55,71,4.63,EG,1702452781
178,albany,42.6001,-73.9662,2.02,77,67,0.45,US,1702452770
179,acarau,-2.8856,-40.12,27.07,75,96,8.08,BR,1702452781
180,huarmey,-10.0681,-78.1522,19.84,90,13,3.22,PE,1702452781
181,cabo san lucas,22.8909,-109.9124,23.2,62,100,3.47,MX,1702452233
182,port blair,11.6667,92.75,31.02,70,40,3.6,IN,1702452782
183,cooper's town,26.8667,-77.5167,23.28,85,100,12.04,BS,1702452782
184,boguchany,58.3814,97.4531,-29.52,90,39,2.24,RU,1702452782
185,ushuaia,-54.8,-68.3,6.81,70,75,10.29,AR,1702452591
186,ronne,55.1009,14.7066,1.95,87,100,6.17,DK,1702452782
187,luanda,-8.8368,13.2343,27.0,78,75,2.57,AO,1702452783
188,minas de marcona,-15.2119,-75.1103,15.06,87,97,3.82,PE,1702452783
189,crane,31.3974,-102.3501,12.46,90,100,8.68,US,1702452783
190,kathu,7.9178,98.3332,32.05,62,89,3.55,TH,1702452783
191,tosontsengel,48.7567,98.2839,-21.17,93,100,1.67,MN,1702452784
192,natchez,31.5604,-91.4032,4.12,81,0,0.0,US,1702452784
193,kenora,49.8167,-94.4337,-11.46,85,20,2.57,CA,1702452784
194,marsh harbour,26.5412,-77.0636,23.84,84,100,11.45,BS,1702452620
195,zheleznodorozhnyy,55.7503,38.0042,-10.77,92,100,5.81,RU,1702452784
196,aldan,58.6031,125.3894,-29.82,94,100,3.32,RU,1702452785
197,antofagasta,-23.65,-70.4,17.43,79,37,1.02,CL,1702452572
198,yellowknife,62.456,-114.3525,-3.71,93,75,4.63,CA,1702452785
199,poplar bluff,36.757,-90.3929,4.07,93,0,1.54,US,1702452785
200,xuddur,4.1213,43.8894,30.05,44,39,3.21,SO,1702452785
201,hermanus,-34.4187,19.2345,19.14,56,95,3.24,ZA,1702452785
202,san pedro pochutla,15.7333,-96.4667,22.82,58,5,1.46,MX,1702452786
203,richards bay,-28.783,32.0377,20.77,86,99,2.64,ZA,1702452786
204,mount pearl,47.5166,-52.7813,1.75,80,75,8.23,CA,1702452786
205,nikolayevsk-on-amure,53.1406,140.73,-22.39,81,100,6.88,RU,1702452786
206,yaren,-0.5472,166.916,29.22,77,99,4.98,NR,1702452786
207,petropavlovsk-kamchatsky,53.0452,158.6483,-7.53,94,75,7.0,RU,1702452669
208,carnarvon,-24.8667,113.6333,28.33,53,0,8.55,AU,1702452787
209,juneau,58.3019,-134.4197,6.0,95,100,9.26,US,1702452774
210,ballina,-28.8667,153.5667,26.55,70,100,7.5,AU,1702452787
211,la passe,45.5549,-0.8967,10.13,81,99,9.55,FR,1702452787
212,sumbawa besar,-8.5,117.4333,30.08,68,100,2.07,ID,1702452787
213,south hedland,-20.4089,118.5983,35.96,30,0,7.72,AU,1702452788
214,purpe,64.4803,76.6897,-17.03,96,100,5.69,RU,1702452788
215,belmonte,-15.8631,-38.8828,24.5,78,82,3.14,BR,1702452716
216,san antonio de pale,-1.4014,5.6325,26.82,81,99,3.22,GQ,1702452788
217,cockburn town,21.4612,-71.1419,26.1,67,100,11.23,TC,1702452788
218,rockford,42.2711,-89.094,-3.62,79,75,1.54,US,1702452749
219,badger,64.8,-147.5333,-14.07,84,100,2.06,US,1702452789
220,canto do buriti,-8.11,-42.9444,23.41,56,48,1.33,BR,1702452789
221,ozar,20.1,73.9333,27.2,37,85,2.55,IN,1702452789
222,slatina,44.4333,24.3667,5.25,80,100,4.03,RO,1702452789
223,mangalia,43.8,28.5833,8.93,75,25,4.95,RO,1702452790
224,kapuskasing,49.4169,-82.4331,-9.95,73,100,8.23,CA,1702452790
225,valparaiso,-33.0393,-71.6273,11.8,87,0,0.0,CL,1702452790
226,baglung,28.2719,83.5898,17.59,38,13,2.68,NP,1702452791
227,cuatro cienegas de carranza,26.9833,-102.0833,12.25,78,100,1.66,MX,1702452791
228,kuluncak,38.8828,37.6728,4.53,87,85,3.62,TR,1702452791
229,polyarnyy,69.1989,33.4478,-17.32,100,88,4.32,RU,1702452791
230,burang,30.25,81.1667,-6.83,56,0,2.39,CN,1702452791
231,codrington,-38.2667,141.9667,20.74,60,59,5.65,AU,1702452791
232,laiyang,36.9758,120.7136,4.77,63,100,3.04,CN,1702452791
233,lebu,-37.6167,-73.65,9.81,89,1,7.71,CL,1702452792
234,mar del plata,-38.0023,-57.5575,18.38,90,92,4.02,AR,1702452559
235,ola,59.5833,151.2833,-13.81,81,100,5.56,RU,1702452792
236,sitka,57.0531,-135.33,6.94,65,100,12.35,US,1702452792
237,susuman,62.7833,148.1667,-28.34,98,100,0.89,RU,1702452792
238,weno,7.4515,151.8468,24.97,100,100,3.6,FM,1702452792
239,makungu,-8.7333,35.2833,26.24,57,39,2.64,TZ,1702452793
240,biella,45.5871,8.0859,7.04,95,100,0.35,IT,1702452793
241,rosetta,31.4044,30.4164,20.33,67,67,8.1,EG,1702452793
242,soufriere,13.8562,-61.0566,25.78,85,40,4.63,LC,1702452793
243,colonia,50.9333,6.95,8.81,89,100,2.57,DE,1702452732
244,vuktyl,63.8567,57.3094,-14.94,94,100,4.92,RU,1702452794
245,klaksvik,62.2266,-6.589,2.51,69,100,3.95,FO,1702452794
246,nova sintra,14.8667,-24.7167,21.48,62,100,7.06,CV,1702452795
247,mili,6.0815,171.735,27.65,84,100,12.84,MH,1702452795
248,acapulco de juarez,16.8634,-99.8901,26.9,89,75,0.0,MX,1702452795
249,recani,31.2846,-4.2688,11.56,36,30,0.9,MA,1702452795
250,praia da vitoria,38.7333,-27.0667,14.14,77,40,5.35,PT,1702452795
251,rudnichnyy,59.617,52.4703,-15.02,80,100,5.25,RU,1702452795
252,pacific grove,36.6177,-121.9166,9.49,90,0,4.12,US,1702452796
253,kiffa,16.6166,-11.4045,20.17,24,96,4.03,MR,1702452796
254,bikenibeu village,1.3673,173.1241,28.98,84,75,5.14,KI,1702452796
255,gao,16.6362,1.637,18.53,24,0,6.32,ML,1702452796
256,la paz,-16.5,-68.15,9.99,90,75,4.12,BO,1702452605
257,vilyuchinsk,52.9306,158.4028,-6.71,90,100,4.97,RU,1702452797
258,chui,-33.6971,-53.4616,18.68,97,90,4.5,UY,1702452797
259,zaozersk,69.4005,32.4476,-19.34,99,68,3.06,RU,1702452797
260,merritt,50.1123,-120.7942,-5.64,96,93,1.52,CA,1702452797
261,yeoju,37.2958,127.6339,10.7,61,0,1.54,KR,1702452797
262,al khafji,28.4391,48.4913,22.02,53,100,5.06,SA,1702452797
263,laholm,56.5121,13.0437,-0.84,89,52,3.94,SE,1702452798
264,amarante do maranhao,-5.5667,-46.7422,23.31,76,20,1.12,BR,1702452798
265,coahuayana de hidalgo,18.7,-103.6583,23.49,63,91,1.95,MX,1702452798
266,dolores,-36.3132,-57.6792,18.5,96,100,3.45,AR,1702452798
267,preobrazheniye,42.9019,133.9064,-6.6,41,4,3.46,RU,1702452798
268,jiazi,22.8779,116.067,20.56,79,100,7.92,CN,1702452798
269,lockwood,45.8191,-108.4149,1.25,86,0,3.6,US,1702452799
270,sept-iles,50.2001,-66.3821,-6.71,94,100,1.03,CA,1702452799
271,kavaratti,10.5669,72.642,28.64,72,72,3.67,IN,1702452799
272,tofol,5.3248,163.0078,28.88,74,75,7.72,FM,1702452799
273,leava,-14.3,-178.1667,27.26,67,100,4.31,WF,1702452799
274,darende,38.5458,37.5058,7.43,71,94,2.99,TR,1702452799
275,kariba,-16.5167,28.8,27.25,57,100,2.47,ZW,1702452800
276,juegang,32.3174,121.1855,16.1,75,100,4.17,CN,1702452800
277,leh,34.1667,77.5833,-6.38,48,20,2.11,IN,1702452801
278,severo-yeniseyskiy,60.3725,93.0408,-26.67,96,100,1.52,RU,1702452801
279,denison,33.7557,-96.5367,9.01,60,0,2.68,US,1702452801
280,xiaoshi,41.2971,124.1209,-5.44,55,100,0.81,CN,1702452801
281,fortuna,40.5982,-124.1573,8.7,96,100,0.0,US,1702452801
282,lazaro cardenas,17.9583,-102.2,24.34,57,49,1.98,MX,1702452801
283,stewartville,43.8555,-92.4885,-5.18,67,100,4.63,US,1702452801
284,tirlyanskiy,54.2109,58.5806,-19.89,67,89,1.81,RU,1702452802
285,alo,7.4178,6.7371,26.9,22,3,2.53,NG,1702452802
286,fuglafjordur,62.244,-6.814,2.26,72,100,3.48,FO,1702452802
287,olonkinbyen,70.9221,-8.7187,-0.18,79,100,7.22,SJ,1702452803
288,harper,4.375,-7.7169,26.33,81,2,0.94,LR,1702452803
289,st. john's,47.5649,-52.7093,1.66,80,75,8.23,CA,1702452511
290,el granada,37.5027,-122.4694,11.94,92,100,3.09,US,1702452707
291,howrah,22.5892,88.3103,25.0,44,32,2.57,IN,1702452803
292,sao joao da barra,-21.6403,-41.0511,20.79,89,0,2.77,BR,1702452803
293,puerto cabezas,14.0351,-83.3888,25.09,92,84,5.23,NI,1702452804
294,treasure island,27.7692,-82.769,15.59,82,100,3.13,US,1702452804
295,caninde,-4.3589,-39.3117,24.42,80,39,1.88,BR,1702452804
296,enewetak,11.3474,162.3373,27.83,76,69,8.6,MH,1702452804
297,laascaanood,8.4774,47.3597,26.72,38,98,1.71,SO,1702452804
298,sanchor,24.7553,71.7722,27.7,15,13,0.64,IN,1702452805
299,forster,-32.1667,152.5167,25.21,79,27,8.93,AU,1702452805
300,manismata,-2.4667,111.0333,29.71,69,92,1.96,ID,1702452806
301,prince rupert,54.3161,-130.3201,7.83,95,100,17.49,CA,1702452806
302,bac lieu,9.285,105.7244,28.94,67,100,8.86,VN,1702452807
303,talara,-4.5772,-81.2719,21.41,83,67,7.03,PE,1702452807
304,papao,-17.75,-149.55,26.82,87,100,12.14,PF,1702452807
305,bei'an,24.5399,109.533,21.52,68,98,1.8,CN,1702452807
306,wynyard,-41.0,145.7167,18.08,99,100,2.71,AU,1702452808
307,viedma,-40.8135,-62.9967,13.13,68,0,3.74,AR,1702452808
308,haiku-pauwela,20.9219,-156.3051,23.36,77,20,5.66,US,1702452808
309,fort st. john,56.2499,-120.8529,1.94,64,75,4.63,CA,1702452808
310,kerikeri,-35.2268,173.9474,16.62,80,43,0.89,NZ,1702452808
311,magistral'nyy,56.1725,107.4458,-26.52,96,100,0.95,RU,1702452808
312,la ronge,55.1001,-105.2842,-6.86,73,75,4.12,CA,1702452808
313,tamiahua,21.2667,-97.45,17.26,85,94,3.2,MX,1702452809
314,recreo,-29.2818,-65.061,27.63,62,0,5.0,AR,1702452809
315,kitgum,3.2783,32.8867,30.27,43,23,2.2,UG,1702452809
316,cidreira,-30.1811,-50.2056,20.84,90,3,7.35,BR,1702452809
317,huetamo de nunez,18.5833,-100.8833,22.28,66,100,0.64,MX,1702452809
318,nar'yan-mar,67.6713,53.087,-18.27,98,100,4.02,RU,1702452810
319,santa ana,33.7456,-117.8678,14.14,86,20,1.54,US,1702452772
320,bonthe,7.5264,-12.505,24.89,84,2,2.83,SL,1702452810
321,ingeniero luis a. huergo,-39.0833,-67.2333,14.38,20,0,2.76,AR,1702452810
322,mantenopolis,-18.8625,-41.1228,21.18,89,100,1.72,BR,1702452810
323,tazacorte,28.629,-17.9293,19.54,37,2,4.47,ES,1702452811
324,porto novo,6.4965,2.6036,23.9,29,55,3.28,BJ,1702452811
325,nadym,65.5333,72.5167,-15.75,96,94,3.82,RU,1702452811
326,sakaiminato,35.55,133.2333,11.99,58,20,7.72,JP,1702452812
327,mondlo,-27.983,30.7177,17.17,78,96,3.28,ZA,1702452812
328,val-d'or,48.1002,-77.7828,-10.95,79,40,2.57,CA,1702452527
329,waddan,29.1614,16.139,17.06,34,0,1.51,LY,1702452812
330,mananjary,-21.2167,48.3333,30.62,60,100,3.95,MG,1702452813
331,ngereklmadel,7.4883,134.4856,30.05,74,75,5.14,PW,1702452813
332,mount gambier,-37.8333,140.7667,20.06,62,73,5.1,AU,1702452813
333,cide,41.8921,33.0044,11.24,74,82,3.66,TR,1702452813
334,sal rei,16.1833,-22.9167,21.11,83,22,3.09,CV,1702452813
335,zakynthos,37.7914,20.8953,13.13,100,40,0.0,GR,1702452814
336,tazovsky,67.4667,78.7,-19.43,98,99,2.38,RU,1702452814
337,antigonish,45.6169,-61.9986,0.46,77,11,4.5,CA,1702452814
338,port hedland,-20.3167,118.5667,36.03,30,0,7.72,AU,1702452689
339,basse-terre,16.1667,-61.6667,22.55,88,0,1.03,GP,1702452815
340,donggang,28.9365,114.2259,17.31,66,45,1.0,CN,1702452815
341,saudarkrokur,65.7461,-19.6394,2.5,84,100,4.18,IS,1702452815
342,uzgen,40.7699,73.3007,-7.84,81,12,0.62,KG,1702452815
343,korablino,53.9164,40.0133,-11.38,94,100,7.03,RU,1702452815
344,laguna,38.421,-121.4238,10.06,86,0,2.06,US,1702452592
345,huilong,31.8111,121.655,12.96,75,100,4.42,CN,1702452816
346,touros,-5.1989,-35.4608,26.25,75,28,7.42,BR,1702452816
347,selkirk,50.1436,-96.8845,-9.96,87,41,1.79,CA,1702452615
348,pisco,-13.7,-76.2167,20.03,83,0,3.09,PE,1702452758
349,midvagur,62.0511,-7.1939,2.46,93,40,0.51,FO,1702452816
350,muborak,39.2553,65.1528,3.88,44,33,4.69,UZ,1702452816
351,sola,-13.8833,167.55,26.63,67,85,8.71,VU,1702452817
352,thunder bay,48.4001,-89.3168,-10.01,67,0,4.63,CA,1702452537
353,hauterive,46.0901,3.4459,10.42,85,100,4.07,FR,1702452817
354,east london,-33.0153,27.9116,17.52,94,100,4.12,ZA,1702452610
355,prado,-17.3411,-39.2208,23.35,88,99,2.79,BR,1702452818
356,bamboo flat,11.7,92.7167,31.05,70,40,3.6,IN,1702452818
357,phichit,16.25,100.4167,32.78,77,48,0.52,TH,1702452818
358,vila velha,-20.3297,-40.2925,23.97,86,75,2.57,BR,1702452818
359,malango,-2.9627,119.9001,24.53,92,77,0.17,ID,1702452818
360,mitu,1.1983,-70.1733,22.43,99,89,0.24,CO,1702452818
361,hotan,37.0997,79.9269,6.61,13,0,4.04,CN,1702452819
362,ambovombe,-25.1667,46.0833,31.88,43,98,3.8,MG,1702452819
363,al mijlad,11.0333,27.7333,24.33,18,100,9.54,SD,1702452819
364,ryotsu-minato,38.0833,138.4333,6.58,64,95,3.94,JP,1702452819
365,uturoa,-16.7333,-151.4333,27.01,81,77,10.44,PF,1702452819
366,hassi messaoud,31.6804,6.0729,7.92,46,0,1.54,DZ,1702452819
367,newman,37.3138,-121.0208,5.72,78,0,0.62,US,1702452820
368,mahina,-17.5065,-149.489,26.87,78,75,1.03,PF,1702452820
369,farmville,37.3021,-78.3919,2.56,86,0,0.0,US,1702452820
370,dhromolaxia,34.8755,33.5868,18.81,70,20,3.09,CY,1702452820
371,castillos,-34.1667,-53.8333,18.01,97,92,2.92,UY,1702452820
372,palmer,42.1584,-72.3287,2.41,71,0,2.57,US,1702452562
373,san luis de la loma,17.2706,-100.8939,24.87,63,16,1.69,MX,1702452820
374,chinde,26.8418,88.0763,14.72,58,27,1.37,NP,1702452821
375,silsbee,30.3491,-94.178,10.87,79,100,2.03,US,1702452821
376,meadow lakes,61.6247,-149.6011,-7.25,90,100,1.16,US,1702452821
377,guasdualito,7.2424,-70.7324,25.35,71,67,1.43,VE,1702452821
378,coyhaique,-45.5752,-72.0662,8.97,61,75,1.54,CL,1702452821
379,saint-philippe,-21.3585,55.7679,30.06,84,41,4.81,RE,1702452822
380,masvingo,-20.0637,30.8277,27.33,55,58,4.32,ZW,1702452822
381,aripuana,-9.1667,-60.6333,23.19,93,78,0.32,BR,1702452822
382,myeik,12.4333,98.6,31.43,57,79,2.78,MM,1702452822
383,khandyga,62.6667,135.6,-31.96,99,100,0.67,RU,1702452822
384,geraldton,-28.7667,114.6,29.23,45,0,9.77,AU,1702452822
385,kill devil hills,36.0307,-75.676,6.01,86,0,0.0,US,1702452712
386,tangalle,6.024,80.7911,29.09,64,26,3.39,LK,1702452823
387,shelui,-4.3667,34.2,27.29,54,60,2.1,TZ,1702452823
388,santo antonio,-6.3106,-35.4789,23.19,81,12,4.03,BR,1702452823
389,taradale,-39.5333,176.85,15.57,77,100,2.24,NZ,1702452824
390,molde,62.7375,7.1591,-4.09,74,75,2.57,NO,1702452824
391,paphos,34.7667,32.4167,18.88,68,20,1.54,CY,1702452613
392,bontang,0.1333,117.5,29.19,70,100,2.79,ID,1702452672
393,constantia,44.1833,28.65,0.38,75,33,4.57,RO,1702452824
394,tchintabaraden,15.8969,5.7985,18.14,26,0,8.07,NE,1702452824
395,oranjemund,-28.55,16.4333,18.05,65,0,7.48,NA,1702452825
396,priozersk,61.0393,30.1291,1.17,84,100,4.49,RU,1702452825
397,haymana,39.4321,32.4973,3.27,74,53,2.02,TR,1702452825
398,shache,38.4167,77.2406,7.27,12,20,6.42,CN,1702452825
399,shiguai,40.7058,110.2856,-0.6,94,100,2.8,CN,1702452825
400,shingu,33.7333,135.9833,11.6,74,0,1.42,JP,1702452825
401,dalandzadgad,43.5708,104.425,-12.11,69,100,5.29,MN,1702452826
402,argo,37.6333,22.7333,13.21,68,2,0.48,GR,1702452826
403,i-n-salah,27.1935,2.4607,17.27,16,48,1.71,DZ,1702452826
404,aquin,18.2833,-73.4,24.38,80,14,1.51,HT,1702452827
405,churapcha,62.0025,132.4325,-31.11,98,100,2.32,RU,1702452828
406,ilukste,55.9775,26.2966,-0.75,98,100,1.0,LV,1702452828
407,usogorsk,63.4106,48.6872,-12.96,94,100,4.14,RU,1702452828
408,choma,-16.8065,26.9531,29.15,38,82,2.81,ZM,1702452828
409,ta`u,-14.2336,-169.5144,26.48,88,100,6.5,AS,1702452828
410,kayyerkan,69.3786,87.7439,-24.84,69,100,4.14,RU,1702452828
411,holualoa,19.6228,-155.9522,22.91,78,0,2.57,US,1702452828
412,las heras,-46.5419,-68.9359,9.53,54,56,9.13,AR,1702452580
413,edmundston,47.3737,-68.3251,-1.04,93,75,4.12,CA,1702452829
414,tuy hoa,13.0833,109.3,26.55,80,51,4.1,VN,1702452829
415,gornopravdinsk,60.05,69.9,-16.28,93,100,5.0,RU,1702452829
416,mariental,-24.6333,17.9667,30.08,9,12,4.13,NA,1702452829
417,tolanaro,-25.0319,46.9987,30.04,70,20,3.09,MG,1702452829
418,san carlos centro,-31.7286,-61.0919,23.12,91,100,1.73,AR,1702452829
419,laojunmiao,39.8333,97.7333,-6.24,55,92,3.87,CN,1702452830
420,alesund,62.4723,6.1549,2.83,69,75,6.17,NO,1702452831
421,isangel,-19.55,169.2667,23.93,76,41,6.09,VU,1702452831
422,yerofey pavlovich,53.9667,121.9667,-29.64,95,3,1.18,RU,1702452831
423,narasannapeta,18.4167,84.05,26.28,53,41,3.59,IN,1702452831
424,zhanaozen,43.3,52.8,-8.14,35,100,14.25,KZ,1702452831
425,lauro de freitas,-12.8944,-38.3272,26.01,78,40,4.63,BR,1702452831
426,nishinoomote,30.7333,131.0,19.31,63,20,4.12,JP,1702452832
427,ulsteinvik,62.3432,5.8487,2.82,83,85,1.34,NO,1702452832
428,oriximina,-1.7656,-55.8661,24.85,80,69,1.14,BR,1702452832
429,carbonear,47.7332,-53.2148,1.91,77,16,5.85,CA,1702452833
430,lushun,38.8,121.2667,-1.88,60,100,3.64,CN,1702452833
431,aroma,15.8167,36.1333,25.61,18,4,5.78,SD,1702452833
432,bandirma,40.3522,27.9767,6.01,100,43,0.51,TR,1702452834
433,jalqani,12.4486,34.2186,27.71,15,55,5.8,SD,1702452834
434,abashiri,44.0213,144.2697,-3.84,93,75,2.06,JP,1702452834
435,dowlatabad,32.7998,51.6955,7.82,39,85,2.06,IR,1702452834
436,el calafate,-50.3408,-72.2768,6.75,83,60,4.33,AR,1702452834
437,aberdeen,57.1437,-2.0981,4.27,94,75,2.06,GB,1702452649
438,egilsstadir,65.2653,-14.3948,3.95,65,0,7.72,IS,1702452834
439,vredendal,-31.6683,18.5012,22.43,38,0,0.7,ZA,1702452835
440,soio,-6.1349,12.3689,27.73,75,86,2.04,AO,1702452835
441,puerto armuelles,8.2833,-82.8667,27.27,72,4,0.45,PA,1702452835
442,aginskoye,51.1,114.53,-23.36,87,36,1.45,RU,1702452835
443,adre,13.4667,22.2,20.85,23,48,8.97,TD,1702452835
444,tumayr,25.7039,45.868,19.06,56,100,5.94,SA,1702452835
445,caconda,-13.7333,15.0667,17.97,90,100,0.4,AO,1702452836
446,hirara,24.8,125.2833,22.92,78,75,5.14,JP,1702452836
447,washington,47.5001,-120.5015,2.96,84,93,0.59,US,1702452836
448,rabo de peixe,37.8,-25.5833,13.73,62,20,4.63,PT,1702452836
449,urangan,-25.3,152.9,25.27,66,2,4.04,AU,1702452837
450,kapa'a,22.0752,-159.319,23.99,90,100,13.89,US,1702452837
451,malpica,43.3228,-8.8105,12.9,73,43,6.15,ES,1702452837
452,copala,16.65,-98.9833,24.64,74,30,2.11,MX,1702452837
453,merizo village,13.2658,144.6691,30.32,85,95,7.97,GU,1702452837
454,amstetten,48.1229,14.8721,7.21,93,100,1.75,AT,1702452837
455,yakeshi,49.2833,120.7333,-33.91,100,22,0.92,CN,1702452837
456,kailua-kona,19.6406,-155.9956,24.98,78,0,2.57,US,1702452571
457,bardai,11.65,7.2333,17.47,32,48,8.59,NG,1702452838
458,port augusta,-32.5,137.7667,30.42,24,2,9.54,AU,1702452838
459,mejit,10.2753,170.8646,27.39,83,100,10.64,MH,1702452838
460,lodja,-3.4833,23.4333,22.07,98,100,0.67,CD,1702452838
461,jalai nur,49.45,117.7,-27.8,93,83,1.16,CN,1702452838
462,fort bragg,35.139,-79.006,2.12,87,0,0.0,US,1702452838
463,soeng sang,14.4264,102.4606,28.02,48,98,2.16,TH,1702452839
464,warrnambool,-38.3833,142.4833,18.99,73,79,6.05,AU,1702452670
465,alofi,-19.0595,-169.9187,24.94,83,48,2.06,NU,1702452839
466,vadso,70.0744,29.7487,-9.91,79,75,7.2,NO,1702452839
467,turkmenbasy,40.0222,52.9552,-2.57,36,100,9.77,TM,1702452839
468,kourou,5.1552,-52.6478,23.03,93,81,2.36,GF,1702452839
469,altay,47.8667,88.1167,-19.84,88,57,0.31,CN,1702452839
470,keetmanshoop,-26.5833,18.1333,25.51,27,0,0.51,NA,1702452839
471,kisangani,0.5167,25.2,22.1,97,100,1.16,CD,1702452839
472,chibougamau,49.9168,-74.3659,-11.21,79,100,4.63,CA,1702452840
473,ribeira brava,32.65,-17.0667,19.45,71,59,3.01,PT,1702452840
474,hammerfest,70.6634,23.6821,-6.75,73,0,1.03,NO,1702452840
475,guaruja,-23.9931,-46.2564,19.94,26,0,1.27,BR,1702452840
476,taltal,-25.4,-70.4833,16.31,86,41,0.78,CL,1702452738
477,mitsamiouli,-11.3847,43.2844,28.97,72,81,4.12,KM,1702452840
478,pushkinskiye gory,57.0209,28.9103,-0.17,98,100,2.73,RU,1702452840
479,bereznik,62.8551,42.7072,-10.05,93,100,4.1,RU,1702452841
480,qamdo,31.1667,97.2333,-1.41,24,75,10.02,CN,1702452841
481,port lincoln,-34.7333,135.8667,18.4,78,25,9.77,AU,1702452841
482,akureyri,65.6835,-18.0878,3.96,75,40,2.06,IS,1702452841
483,santo domingo de los colorados,-0.25,-79.15,21.74,98,95,1.08,EC,1702452841
484,sorong,-0.8833,131.25,29.1,75,55,5.45,ID,1702452841
485,tarawa,1.419,172.984,29.05,84,75,5.14,KI,1702452842
486,hai duong,20.9333,106.3167,27.0,56,73,5.85,VN,1702452842
487,dunedin,-45.8742,170.5036,14.89,65,0,6.26,NZ,1702452748
488,launceston,-41.45,147.1667,20.19,94,40,5.66,AU,1702452697
489,kangding,30.0513,101.9603,14.04,22,0,7.79,CN,1702452843
490,hajnowka,52.7433,23.5812,2.23,96,100,0.45,PL,1702452843
491,sovetskaya gavan',48.9723,140.2878,-17.72,63,5,7.41,RU,1702452843
492,mkushi,-13.6202,29.3939,28.05,52,31,2.49,ZM,1702452844
493,kalmunai,7.4167,81.8167,28.42,74,71,7.02,LK,1702452844
494,sinabang,2.4803,96.3801,28.4,73,58,2.78,ID,1702452844
495,montepuez,-13.1256,38.9997,34.29,31,17,1.96,MZ,1702452844
496,andrelandia,-21.7397,-44.3092,15.81,96,73,0.67,BR,1702452844
497,st ives,50.2086,-5.4875,10.05,87,75,11.32,GB,1702452844
498,trincomalee,8.5711,81.2335,27.71,70,86,6.2,LK,1702452845
499,pontes e lacerda,-15.2261,-59.3353,22.47,97,92,1.03,BR,1702452845
500,virrat,62.2476,23.78,-10.03,95,100,2.9,FI,1702452845
501,torghay,49.6339,63.4981,-13.89,41,13,5.77,KZ,1702452845
502,northam,51.0333,-4.2167,9.78,90,98,9.69,GB,1702452845
503,saint-pierre,-21.3393,55.4781,30.1,78,75,5.14,RE,1702452845
504,hobyo,5.3505,48.5268,28.42,62,81,6.12,SO,1702452846
505,baltatesti,47.1167,26.3,3.04,71,100,1.94,RO,1702452846
506,quarai,-30.3875,-56.4514,22.08,80,62,3.43,BR,1702452846
507,sokcho,38.2083,128.5911,8.34,81,75,3.6,KR,1702452846
508,kattivakkam,13.2167,80.3167,28.05,64,92,6.63,IN,1702452847
509,yamada,39.4667,141.95,3.26,69,9,3.39,JP,1702452847
510,trail,49.0998,-117.7022,3.32,97,89,0.79,CA,1702452847
511,venice,27.0998,-82.4543,16.66,88,100,2.24,US,1702452847
512,uttarkashi,30.7333,78.45,17.28,24,0,2.56,IN,1702452847
513,manado,1.487,124.8455,31.43,70,40,2.57,ID,1702452847
514,general pico,-35.6566,-63.7568,17.29,92,0,4.04,AR,1702452848
515,margate,51.3813,1.3862,8.28,93,100,0.89,GB,1702452848
516,bafq,31.6128,55.4107,19.55,14,10,2.83,IR,1702452848
517,cedeira,43.6797,-8.0209,11.88,73,29,8.34,ES,1702452848
518,kharp,66.8014,65.8081,-21.56,91,16,3.89,RU,1702452848
519,kidal,18.4411,1.4078,17.46,18,0,7.37,ML,1702452849
520,villa gesell,-37.2639,-56.973,20.03,96,100,5.05,AR,1702452849
521,magadan,59.5667,150.8,-14.15,90,99,5.37,RU,1702452849
522,turpan,42.9333,89.1667,0.73,38,100,1.85,CN,1702452849
523,matonga,-2.3833,34.0833,25.74,65,19,0.36,TZ,1702452849
524,tralee,52.2704,-9.7026,5.14,87,0,2.57,IE,1702452849
525,de aar,-30.6497,24.0123,23.28,33,0,3.28,ZA,1702452850
526,beichengqu,40.4394,113.1536,-2.62,83,100,4.12,CN,1702452850
527,charters towers,-20.1,146.2667,26.16,68,100,10.0,AU,1702452851
528,baharly,38.4362,57.4316,2.1,29,92,8.61,TM,1702452851
529,wulingyuan,29.3494,110.5441,7.94,92,100,0.94,CN,1702452851
530,khuzdar,27.7384,66.6434,19.25,12,59,1.72,PK,1702452851
531,khanbari,27.3747,87.2039,17.95,50,15,2.45,NP,1702452851
532,franklin,39.9667,-83.0166,0.07,80,0,2.57,US,1702452543
533,isabela,6.7085,121.9711,31.03,75,80,2.82,PH,1702452852
534,new norfolk,-42.7826,147.0587,22.06,80,93,1.25,AU,1702452852
535,guerrero negro,27.9769,-114.0611,16.31,74,0,2.25,MX,1702452852
536,uliastay,47.7417,96.8444,-17.37,93,100,1.07,MN,1702452852
537,lisakovsk,52.5369,62.4936,-21.84,85,56,2.53,KZ,1702452852
538,huazhou,21.6333,110.5833,24.78,75,100,6.69,CN,1702452852
539,demre,36.2537,29.9777,17.4,39,3,0.91,TR,1702452853
540,korla,41.7597,86.1469,-2.58,42,100,7.87,CN,1702452853
541,borogontsy,62.6683,131.1683,-31.76,99,100,1.06,RU,1702452853
542,dakhla,23.6848,-15.958,19.01,39,86,2.57,EH,1702452853
543,hadibu,12.65,54.0333,26.29,63,99,4.02,YE,1702452854
544,puerto ayacucho,5.6639,-67.6236,26.2,79,61,1.52,VE,1702452854
545,anatuya,-28.4606,-62.8347,29.78,52,99,5.68,AR,1702452854
546,kosong,38.3788,128.4676,8.27,83,100,3.63,KR,1702452854
547,shibirghan,36.6676,65.7529,8.15,54,65,5.91,AF,1702452854
548,ciudad bolivar,8.1222,-63.5497,24.51,89,82,3.78,VE,1702452854
549,gebeit,21.0667,36.3167,19.61,25,65,5.82,SD,1702452854
550,staryye ozinki,51.1786,49.6769,-12.87,45,100,9.42,RU,1702452855
551,playa blanca,28.8643,-13.8281,19.06,76,0,5.42,ES,1702452855
552,ayr,55.4627,-4.6339,5.94,93,40,1.54,GB,1702452855
553,tynda,55.1667,124.7167,-33.99,95,8,1.68,RU,1702452855
554,mae hong son,19.3003,97.9685,31.08,55,20,2.06,TH,1702452855
555,sinop,41.7711,34.8709,6.24,73,66,1.23,TR,1702452856
556,ad dawadimi,24.5077,44.3924,17.64,28,49,9.0,SA,1702452856
557,goynuk,40.4003,30.7883,6.38,75,5,1.43,TR,1702452856
558,kolpashevo,58.3131,82.9089,-24.94,87,100,3.58,RU,1702452856
559,lucea,18.451,-78.1736,26.92,77,100,9.87,JM,1702452857
560,alto araguaia,-17.3147,-53.2153,21.47,75,2,1.58,BR,1702452857
561,starokostiantyniv,49.7576,27.2034,1.16,100,100,3.62,UA,1702452857
562,vilhena,-12.7406,-60.1458,21.39,94,100,1.02,BR,1702452857
563,gadzhiyevo,69.2551,33.3362,-18.39,100,88,4.1,RU,1702452857
564,tres arroyos,-38.3739,-60.2798,12.17,92,1,2.77,AR,1702452858
565,aral,40.5156,81.2636,-1.04,54,91,9.04,CN,1702452858
